[
  {
    "id": "1",
    "partner": "Limulunga",
    "country": "Zambia",
    "city": "Limulunga",
    "lat": -15.09691,
    "lng": 23.13757,
    "type": "Education",
    "details": "School",
    "startYear": 2008,
    "endYear": 2009,
    "status": "completed"
  },
  {
    "id": "2",
    "partner": "STEP",
    "country": "Cambodia",
    "city": "Campong, Cham",
    "lat": 11.99339,
    "lng": 105.4635,
    "type": "Education",
    "details": "School",
    "startYear": 2009,
    "endYear": 2009,
    "status": "completed"
  },
  {
    "id": "3",
    "partner": "One Acre Fund",
    "country": "Kenya",
    "city": "Bungoma",
    "lat": 0.5635,
    "lng": 34.56055,
    "type": "Economic",
    "details": "Staff Offices",
    "startYear": 2009,
    "endYear": 2010,
    "status": "completed"
  },
  {
    "id": "4",
    "partner": "Hospital for Hope",
    "country": "India",
    "city": "Jharkhand",
    "lat": 23.539026,
    "lng": 85.931808,
    "type": "Healthcare",
    "details": "Medical Clinic",
    "startYear": 2011,
    "endYear": 2012,
    "status": "completed"
  },
  {
    "id": "5",
    "partner": "Mentee Education Foundation",
    "country": "Liberia",
    "city": "Kakata",
    "lat": 6.53147,
    "lng": -10.35357,
    "type": "Education",
    "details": "School",
    "startYear": 2011,
    "endYear": 2012,
    "status": "completed"
  },
  {
    "id": "6",
    "partner": "Cura",
    "country": "Kenya",
    "city": "Nairobi",
    "lat": -1.28333,
    "lng": 36.81667,
    "type": "Education",
    "details": "School",
    "startYear": 2012,
    "endYear": 2012,
    "status": "completed"
  },
  {
    "id": "7",
    "partner": "U-District Food Bank",
    "country": "USA",
    "city": "Seattle",
    "lat": 47.6618586,
    "lng": -122.3116386,
    "type": "Food Security",
    "details": "Food Security",
    "startYear": 2012,
    "endYear": 2012,
    "status": "completed"
  },
  {
    "id": "8",
    "partner": "Med 25 (Phase 1)",
    "country": "Kenya",
    "city": "Mbita",
    "lat": -0.6999972,
    "lng": 34.333332,
    "type": "Healthcare",
    "details": "Mortuary and Health Clinic",
    "startYear": 2013,
    "endYear": 2013,
    "status": "completed"
  },
  {
    "id": "9",
    "partner": "ACE Africa",
    "country": "Kenya",
    "city": "Bungoma",
    "lat": 0.569525,
    "lng": 34.558376,
    "type": "Education",
    "details": "Community Center",
    "startYear": 2013,
    "endYear": 2013,
    "status": "completed"
  },
  {
    "id": "10",
    "partner": "U.S. Marine Raiders Association",
    "country": "Soloman Islands",
    "city": "Tulagi",
    "lat": -9.43333,
    "lng": 159.95,
    "type": "Education",
    "details": "School",
    "startYear": 2012,
    "endYear": 2013,
    "status": "completed"
  },
  {
    "id": "11",
    "partner": "EKARI",
    "country": "Malawi",
    "city": "Phalombe",
    "lat": -15.8063498,
    "lng": 35.6506691,
    "type": "Education",
    "details": "Community Center",
    "startYear": 2014,
    "endYear": 2015,
    "status": "completed"
  },
  {
    "id": "12",
    "partner": "Dearborne Park Elementary School",
    "country": "USA",
    "city": "Seattle",
    "lat": 47.5518621,
    "lng": -122.2983605,
    "type": "Education",
    "details": "School rehab",
    "startYear": 2014,
    "endYear": 2014,
    "status": "completed"
  },
  {
    "id": "13",
    "partner": "Partners in Health: Dambe",
    "country": "Malawi",
    "city": "Dambe",
    "lat": -15.33333,
    "lng": 34.53333,
    "type": "Healthcare",
    "details": "Health Clinic",
    "startYear": 2014,
    "endYear": 2015,
    "status": "completed"
  },
  {
    "id": "14",
    "partner": "Kizimani",
    "country": "Kenya",
    "city": "Kangundo",
    "lat": -1.29792,
    "lng": 37.34705,
    "type": "Healthcare",
    "details": "Health Clinic",
    "startYear": 2015,
    "endYear": 2015,
    "status": "completed"
  },
  {
    "id": "15",
    "partner": "FIMRC",
    "country": "Uganda",
    "city": "Bududa",
    "lat": 1.01118,
    "lng": 34.3311195,
    "type": "Healthcare",
    "details": "Health Clinic & Maternity Ward",
    "startYear": 2015,
    "endYear": 2016,
    "status": "completed"
  },
  {
    "id": "16",
    "partner": "HELGA",
    "country": "Kenya",
    "city": "Kajiado",
    "lat": -1.85238,
    "lng": 36.77683,
    "type": "Education",
    "details": "School Kitchen",
    "startYear": 2015,
    "endYear": 2015,
    "status": "completed"
  },
  {
    "id": "17",
    "partner": "University District Youth Center",
    "country": "USA",
    "city": "Seattle",
    "lat": 47.6618586,
    "lng": -122.3116386,
    "type": "Economic",
    "details": "Homeless Youth Center",
    "startYear": 2015,
    "endYear": 2016,
    "status": "completed"
  },
  {
    "id": "18",
    "partner": "Bottomup: Cape Flats",
    "country": "South Africa",
    "city": "Parkwood",
    "lat": -26.195246,
    "lng": 28.034088,
    "type": "Education",
    "details": "Technology Center",
    "startYear": 2015,
    "endYear": 2017,
    "status": "completed"
  },
  {
    "id": "19",
    "partner": "Optimize Health",
    "country": "India",
    "city": "Madyha Pradesh",
    "lat": 23.473324,
    "lng": 77.947998,
    "type": "Healthcare",
    "details": "Health Clinic",
    "startYear": 2015,
    "endYear": 2017,
    "status": "completed"
  },
  {
    "id": "20",
    "partner": "Flying Kites: Dorm (Ph. 1)",
    "country": "Kenya",
    "city": "Njabini",
    "lat": -0.716667,
    "lng": 36.6667,
    "type": "Education",
    "details": "Dormitory",
    "startYear": 2015,
    "endYear": 2017,
    "status": "completed"
  },
  {
    "id": "21",
    "partner": "Flying Kites: Classroom (Ph. 2)",
    "country": "Kenya",
    "city": "Njabini",
    "lat": -0.716667,
    "lng": 36.6667,
    "type": "Education",
    "details": "Classroom",
    "startYear": 2017,
    "endYear": 2018,
    "status": "completed"
  },
  {
    "id": "22",
    "partner": "Partners in Health: Neno, Malawi",
    "country": "Malawi",
    "city": "Neno",
    "lat": -15.3951305,
    "lng": 34.6516972,
    "type": "Healthcare",
    "details": "Outpatient Department",
    "startYear": 2015,
    "endYear": 2019,
    "status": "completed"
  },
  {
    "id": "23",
    "partner": "Integrate Health (Phase 1) - Adabewere",
    "country": "Togo",
    "city": "Adabewere",
    "lat": 9.55111,
    "lng": 1.18611,
    "type": "Healthcare",
    "details": "Health Clinic & Maternity Ward",
    "startYear": 2016,
    "endYear": 2017,
    "status": "completed"
  },
  {
    "id": "24",
    "partner": "Integrate Health (Phase 1) - Adabewere",
    "country": "Togo",
    "city": "Adabewere",
    "lat": 9.55111,
    "lng": 1.18611,
    "type": "Healthcare",
    "details": "Health Clinic & Maternity Ward",
    "startYear": 2016,
    "endYear": 2017,
    "status": "completed"
  },
  {
    "id": "25",
    "partner": "Integrate Health (Phase 2)  - Djamde",
    "country": "Togo",
    "city": "Djamde",
    "lat": 9.51556,
    "lng": 1.04,
    "type": "Healthcare",
    "details": "Health Clinic",
    "startYear": 2017,
    "endYear": 2017,
    "status": "completed"
  },
  {
    "id": "26",
    "partner": "Integrate Health (Phase 2) - Kipindi",
    "country": "Togo",
    "city": "Kipindi",
    "lat": 9.483505,
    "lng": 1.366636,
    "type": "Healthcare",
    "details": "Health Clinic",
    "startYear": 2017,
    "endYear": 2017,
    "status": "completed"
  },
  {
    "id": "27",
    "partner": "Integrate Health (Phase 2) - Sarakawa",
    "country": "Togo",
    "city": "Sarakawa",
    "lat": 9.63083,
    "lng": 1.0225,
    "type": "Healthcare",
    "details": "Health Clinic",
    "startYear": 2017,
    "endYear": 2017,
    "status": "completed"
  },
  {
    "id": "28",
    "partner": "Women's Protection Center Nepal",
    "country": "Nepal",
    "city": "Hetauda",
    "lat": 27.429071,
    "lng": 85.029716,
    "type": "Economic",
    "details": "Safehome",
    "startYear": 2016,
    "endYear": 2017,
    "status": "completed"
  },
  {
    "id": "-",
    "partner": "23rd & Cherry: Seattle",
    "country": "USA",
    "city": null,
    "lat": null,
    "lng": null,
    "type": "Economic",
    "details": "Addiction Support Center",
    "startYear": 2016,
    "endYear": null,
    "status": "active"
  },
  {
    "id": "29",
    "partner": "Larkin Street Youth Services (Phase 1)",
    "country": "USA",
    "city": "San Francisco",
    "lat": 37.773972,
    "lng": -122.431297,
    "type": "Economic",
    "details": "Homeless Youth Center",
    "startYear": 2016,
    "endYear": 2017,
    "status": "completed"
  },
  {
    "id": "30",
    "partner": "Larkin Street Youth Services (Phase 2)",
    "country": "USA",
    "city": "San Francisco",
    "lat": 37.773972,
    "lng": -122.431297,
    "type": "Economic",
    "details": "Homeless Youth Center",
    "startYear": 2016,
    "endYear": 2017,
    "status": "completed"
  },
  {
    "id": "31",
    "partner": "Ndlovu Care Group",
    "country": "South Africa",
    "city": "Limpopo",
    "lat": -23.90449,
    "lng": 29.46885,
    "type": "Healthcare",
    "details": "Reaserch Lab",
    "startYear": 2017,
    "endYear": 2017,
    "status": "completed"
  },
  {
    "id": "32",
    "partner": "World Relief Seattle: Kent, WA",
    "country": "USA",
    "city": "Kent",
    "lat": 47.37801,
    "lng": -122.237381,
    "type": "Economic",
    "details": "Refugee Food Garden",
    "startYear": 2017,
    "endYear": 2018,
    "status": "completed"
  },
  {
    "id": "33",
    "partner": "Etta Projects",
    "country": "Bolivia",
    "city": "Buena Vista",
    "lat": -17.413977,
    "lng": -66.165321,
    "type": "Economic",
    "details": "Community Center",
    "startYear": 2017,
    "endYear": 2018,
    "status": "completed"
  },
  {
    "id": "34",
    "partner": "Matibabu & Tiba Foundation (Phase 1)",
    "country": "Kenya",
    "city": "Ugenya",
    "lat": 0.283333,
    "lng": 34.2833,
    "type": "Healthcare",
    "details": "In-Patient Ward",
    "startYear": 2017,
    "endYear": 2018,
    "status": "completed"
  },
  {
    "id": "35",
    "partner": "I Love Baseball/COTN Design & Planning",
    "country": "Dominican Republic",
    "city": "Barahona",
    "lat": 18.15629,
    "lng": -71.073303,
    "type": "Education",
    "details": "Baseball stadium",
    "startYear": 2017,
    "endYear": 2018,
    "status": "completed"
  },
  {
    "id": "36",
    "partner": "IDH Bolivia",
    "country": "Bolivia",
    "city": "Cochambaba",
    "lat": -17.3855905,
    "lng": -66.1676427,
    "type": "Healthcare",
    "details": "Health Clinic",
    "startYear": 2018,
    "endYear": 2019,
    "status": "completed"
  },
  {
    "id": "37",
    "partner": "BABES",
    "country": "USA",
    "city": "Seattle",
    "lat": 47.6079176,
    "lng": -122.3328874,
    "type": "Healthcare",
    "details": "Office Remodel",
    "startYear": 2018,
    "endYear": 2019,
    "status": "completed"
  },
  {
    "id": "38",
    "partner": "Health Builders",
    "country": "Rwanda",
    "city": "Kigali",
    "lat": -1.716667,
    "lng": 29.3,
    "type": "Healthcare",
    "details": "Maternity Ward",
    "startYear": 2018,
    "endYear": 2018,
    "status": "completed"
  },
  {
    "id": "39",
    "partner": "Med 25 (Phase 2)",
    "country": "Kenya",
    "city": "Mbita",
    "lat": -0.4368,
    "lng": 34.206,
    "type": "Healthcare",
    "details": "Health Clinic",
    "startYear": 2018,
    "endYear": 2018,
    "status": "completed"
  },
  {
    "id": "40",
    "partner": "Dandelion Africa",
    "country": "Kenya",
    "city": "Nakuru",
    "lat": -0.303099,
    "lng": 36.080025,
    "type": "Healthcare",
    "details": "Maternity Ward",
    "startYear": 2018,
    "endYear": 2018,
    "status": "completed"
  },
  {
    "id": "41",
    "partner": "Kibera Girls Soccer Academy",
    "country": "Kenya",
    "city": "Kibera Slum",
    "lat": -1.3111773,
    "lng": 36.7869633,
    "type": "Education",
    "details": "Girls Dormatory & Multi-use facility",
    "startYear": 2018,
    "endYear": 2021,
    "status": "completed"
  },
  {
    "id": "42",
    "partner": "Expedia, Digicel Fdn, Dominnica Ed - Castle Bruce",
    "country": "Dominica",
    "city": "Castle Bruce",
    "lat": 15.414999,
    "lng": -61.3709755,
    "type": "Education",
    "details": "Solar Projects",
    "startYear": 2018,
    "endYear": 2018,
    "status": "completed"
  },
  {
    "id": "43",
    "partner": "Expedia, Digicel Fdn, Dominnica Ed - Atkinson Primary",
    "country": "Dominica",
    "city": "Atkinson Primary",
    "lat": 15.5147759,
    "lng": -61.2637997,
    "type": "Education",
    "details": "Solar Projects",
    "startYear": 2018,
    "endYear": 2018,
    "status": "completed"
  },
  {
    "id": "44",
    "partner": "Expedia, Digicel Fdn, Dominnica Ed - Atkinson L.H.",
    "country": "Dominica",
    "city": "Atkinson L.H.",
    "lat": 15.511261,
    "lng": -61.2656021,
    "type": "Education",
    "details": "Solar Projects",
    "startYear": 2018,
    "endYear": 2018,
    "status": "completed"
  },
  {
    "id": "45",
    "partner": "Expedia, Digicel Fdn, Dominnica Ed - Sineku",
    "country": "Dominica",
    "city": "Sineku",
    "lat": 15.467,
    "lng": -61.25,
    "type": "Education",
    "details": "Solar Projects",
    "startYear": 2018,
    "endYear": 2018,
    "status": "completed"
  },
  {
    "id": "46",
    "partner": "Expedia, Digicel Fdn, Dominnica Ed - Concord",
    "country": "Dominica",
    "city": "Concord",
    "lat": 15.36667,
    "lng": -61.26667,
    "type": "Education",
    "details": "Solar Projects",
    "startYear": 2018,
    "endYear": 2018,
    "status": "completed"
  },
  {
    "id": "47",
    "partner": "Expedia, Digicel Fdn, Dominnica Ed - Salybia",
    "country": "Dominica",
    "city": "Salybia",
    "lat": 15.4833314,
    "lng": -61.2666656,
    "type": "Education",
    "details": "Solar Projects",
    "startYear": 2018,
    "endYear": 2018,
    "status": "completed"
  },
  {
    "id": "48",
    "partner": "Mother Health International",
    "country": "Uganda",
    "city": "Atiak",
    "lat": 3.2576717,
    "lng": 32.1130854,
    "type": "Healthcare",
    "details": "Health Clinic & Maternity Ward",
    "startYear": 2018,
    "endYear": 2020,
    "status": "completed"
  },
  {
    "id": "49",
    "partner": "African Community Center for Social Sustainability",
    "country": "Uganda",
    "city": "Nakaseke",
    "lat": 0.7290983,
    "lng": 32.2718341,
    "type": "Healthcare",
    "details": "Health Clinic",
    "startYear": 2018,
    "endYear": 2019,
    "status": "completed"
  },
  {
    "id": "50",
    "partner": "Integrate Health (Phase 3) - Bandj\u00e9li",
    "country": "Togo",
    "city": "Bandj\u00e9li",
    "lat": 9.4216709,
    "lng": 0.6184101,
    "type": "Healthcare",
    "details": "Heath Clinics & Hospital Reno",
    "startYear": 2019,
    "endYear": 2020,
    "status": "completed"
  },
  {
    "id": "51",
    "partner": "Integrate Health (Phase 3) - Koudoum",
    "country": "Togo",
    "city": "Koudoum",
    "lat": 9.55,
    "lng": 0.883,
    "type": "Healthcare",
    "details": "Health Clinic",
    "startYear": 2019,
    "endYear": 2020,
    "status": "completed"
  },
  {
    "id": "52",
    "partner": "Integrate Health (Phase 3) - Manga",
    "country": "Togo",
    "city": "Manga",
    "lat": 9.564689,
    "lng": 0.69786,
    "type": "Healthcare",
    "details": "Health Clinic",
    "startYear": 2019,
    "endYear": 2020,
    "status": "completed"
  },
  {
    "id": "53",
    "partner": "Integrate Health (Phase 3) - Sanda-Afohou",
    "country": "Togo",
    "city": "Sanda-Afohou",
    "lat": 9.482287,
    "lng": 0.944342,
    "type": "Healthcare",
    "details": "Health Clinic",
    "startYear": 2019,
    "endYear": 2020,
    "status": "completed"
  },
  {
    "id": "54",
    "partner": "Clinton Foundation & Expedia Solar - Gift School",
    "country": "USVI",
    "city": "St. John",
    "lat": 18.3311783,
    "lng": -64.772683,
    "type": "Education",
    "details": "Solar Projects",
    "startYear": 2018,
    "endYear": 2019,
    "status": "completed"
  },
  {
    "id": "55",
    "partner": "Clinton Foundation & Expedia Solar - St. John Christian",
    "country": "USVI",
    "city": "St. John",
    "lat": 18.3299541,
    "lng": -64.7948608,
    "type": "Education",
    "details": "Solar Projects",
    "startYear": 2018,
    "endYear": 2019,
    "status": "completed"
  },
  {
    "id": "56",
    "partner": "Clinton Foundation & Expedia Solar - St. Thomas FRC",
    "country": "USVI",
    "city": "St. Thomas",
    "lat": 18.3429587,
    "lng": -64.9311195,
    "type": "Education",
    "details": "Solar Projects",
    "startYear": 2018,
    "endYear": 2019,
    "status": "completed"
  },
  {
    "id": "57",
    "partner": "Flying Kites (Phase 3: Preschool)",
    "country": "Kenya",
    "city": "Njabini",
    "lat": -0.7271488,
    "lng": 36.6513456,
    "type": "Education",
    "details": "Preschool",
    "startYear": 2019,
    "endYear": 2020,
    "status": "completed"
  },
  {
    "id": "58",
    "partner": "Expedia Group Solar - UPR",
    "country": "Puerto Rico",
    "city": "San Juan",
    "lat": 18.3976621,
    "lng": -66.0766896,
    "type": "Healthcare",
    "details": "Cold Chain Solar Project",
    "startYear": 2019,
    "endYear": 2019,
    "status": "completed"
  },
  {
    "id": "59",
    "partner": "Expedia Group Solar - SIM - Corozal",
    "country": "Puerto Rico",
    "city": "Corozal",
    "lat": 18.3420315,
    "lng": -66.314468,
    "type": "Healthcare",
    "details": "Cold Chain Solar Project",
    "startYear": 2019,
    "endYear": 2019,
    "status": "completed"
  },
  {
    "id": "60",
    "partner": "Expedia Group Solar - CDT Rio Grande",
    "country": "Puerto Rico",
    "city": "Rio Grande",
    "lat": 18.3784431,
    "lng": -65.8375508,
    "type": "Healthcare",
    "details": "Cold Chain Solar Project",
    "startYear": 2019,
    "endYear": 2019,
    "status": "completed"
  },
  {
    "id": "61",
    "partner": "Expedia Group Solar - CDT Las Piedras",
    "country": "Puerto Rico",
    "city": "La Piedras",
    "lat": 18.1825467,
    "lng": -65.8747527,
    "type": "Healthcare",
    "details": "Cold Chain Solar Project",
    "startYear": 2019,
    "endYear": 2019,
    "status": "completed"
  },
  {
    "id": "62",
    "partner": "Expedia Group Solar - CDT Ponce",
    "country": "Puerto Rico",
    "city": "Canovanas",
    "lat": 18.3777808,
    "lng": -65.900069,
    "type": "Healthcare",
    "details": "Cold Chain Solar Project",
    "startYear": 2019,
    "endYear": 2019,
    "status": "completed"
  },
  {
    "id": "63",
    "partner": "Expedia Group Solar - CDT Jayuya",
    "country": "Puerto Rico",
    "city": "Jayuya",
    "lat": 18.219018,
    "lng": -66.5978015,
    "type": "Healthcare",
    "details": "Cold Chain Solar Project",
    "startYear": 2019,
    "endYear": 2019,
    "status": "completed"
  },
  {
    "id": "64",
    "partner": "Expedia Group Solar - CDT Vieques",
    "country": "Puerto Rico",
    "city": "Viequez",
    "lat": 18.1263,
    "lng": -65.4401,
    "type": "Healthcare",
    "details": "Cold Chain Solar Project",
    "startYear": 2019,
    "endYear": 2021,
    "status": "completed"
  },
  {
    "id": "65",
    "partner": "World Relief Seattle (Phase 2)",
    "country": "USA",
    "city": "Kent",
    "lat": 47.37801,
    "lng": -122.237381,
    "type": "Economic",
    "details": "Teaching Kitchen",
    "startYear": 2017,
    "endYear": null,
    "status": "active"
  },
  {
    "id": "66",
    "partner": "Matibabu & Tiba Foundation (Phase 2)",
    "country": "Kenya",
    "city": "Ugenya",
    "lat": 0.283333,
    "lng": 34.2833,
    "type": "Healthcare",
    "details": "Master Planning & Op Theatre",
    "startYear": 2019,
    "endYear": null,
    "status": "active"
  },
  {
    "id": "67",
    "partner": "iKure",
    "country": "India",
    "city": "Kolkata",
    "lat": 22.5036068,
    "lng": 88.3585797,
    "type": "Economic",
    "details": "Advanced Health Care Center",
    "startYear": 2019,
    "endYear": null,
    "status": "active"
  },
  {
    "id": "68",
    "partner": "St James Episcopal Church Design & Planning",
    "country": "USA",
    "city": "Kent",
    "lat": 47.3819429,
    "lng": -122.2162064,
    "type": "Education",
    "details": "Refugee Community Center design",
    "startYear": 2019,
    "endYear": 2020,
    "status": "completed"
  },
  {
    "id": "69",
    "partner": "Amestay School Kitchen Design & Planning",
    "country": "Kenya",
    "city": "Njabini",
    "lat": -0.7271488,
    "lng": 36.6513456,
    "type": "Economic",
    "details": "School Kitchen design",
    "startYear": 2019,
    "endYear": 2020,
    "status": "completed"
  },
  {
    "id": "-",
    "partner": "West African Vocational Schools (Phase 1)",
    "country": "Guinea Bisseau",
    "city": "Antula - Bissau",
    "lat": 11.8946971,
    "lng": -15.5972816,
    "type": "Healthcare",
    "details": "Vocational Training Campus",
    "startYear": 2019,
    "endYear": 2020,
    "status": "completed"
  },
  {
    "id": "70-73",
    "partner": "Integrate Health (Phase 4) - Combined",
    "country": null,
    "city": null,
    "lat": null,
    "lng": null,
    "type": "Healthcare",
    "details": "Health Clinic Renovations",
    "startYear": 2020,
    "endYear": 2021,
    "status": "completed"
  },
  {
    "id": "70",
    "partner": "Integrate Health (Phase 4) - Kpetab",
    "country": "Togo",
    "city": "Kpetab",
    "lat": 9.71927,
    "lng": 0.35912,
    "type": "Healthcare",
    "details": "Health Clinic Renovations",
    "startYear": 2020,
    "endYear": 2021,
    "status": "completed"
  },
  {
    "id": "71",
    "partner": "Integrate Health (Phase 4) - Solidarit\u00e9",
    "country": "Togo",
    "city": "Guerin-Kouka",
    "lat": 9.7257,
    "lng": 0.54806,
    "type": "Healthcare",
    "details": "Health Clinic Renovations",
    "startYear": 2020,
    "endYear": 2021,
    "status": "completed"
  },
  {
    "id": "72",
    "partner": "Integrate Health (Phase 4) - Kouti\u00e8re",
    "country": "Togo",
    "city": "Natchibore",
    "lat": 9.81587,
    "lng": 0.80677,
    "type": "Healthcare",
    "details": "Health Clinic Renovations",
    "startYear": 2020,
    "endYear": 2021,
    "status": "completed"
  },
  {
    "id": "73",
    "partner": "Integrate Health (Phase 4) - Naware",
    "country": "Togo",
    "city": "Naware",
    "lat": 9.61178,
    "lng": 0.63133,
    "type": "Education",
    "details": "Health Clinic Renovations",
    "startYear": 2020,
    "endYear": 2021,
    "status": "completed"
  },
  {
    "id": "74",
    "partner": "BVI RDA",
    "country": "Tortola - BVI",
    "city": "Road Town",
    "lat": 18.4254834,
    "lng": -64.6246562,
    "type": "Healthcare",
    "details": "School Campus Rebuild",
    "startYear": 2019,
    "endYear": null,
    "status": "active"
  },
  {
    "id": "75",
    "partner": "COVID Project - IDH Bolivia (Phase 1 Design)",
    "country": "Bolivia",
    "city": "Cochambaba",
    "lat": -17.3855905,
    "lng": -66.1676427,
    "type": "Housing",
    "details": "COVID Testing Center",
    "startYear": 2020,
    "endYear": 2020,
    "status": "completed"
  },
  {
    "id": "76",
    "partner": "Kingdom Home",
    "country": "Uganda",
    "city": "Busia",
    "lat": 0.512333,
    "lng": 34.032583,
    "type": "Healthcare",
    "details": "Safehome",
    "startYear": 2020,
    "endYear": 2021,
    "status": "completed"
  },
  {
    "id": "77",
    "partner": "Kara Infectious Disease Center",
    "country": "Togo",
    "city": "Kara",
    "lat": 9.508628,
    "lng": 1.209341,
    "type": "Housing",
    "details": null,
    "startYear": 2020,
    "endYear": null,
    "status": "active"
  },
  {
    "id": "78",
    "partner": "Pallet - Minneapolis",
    "country": "USA",
    "city": "Minneapolis",
    "lat": 44.9826973932165,
    "lng": -93.2717801250441,
    "type": "Housing",
    "details": "Temporary Shelter",
    "startYear": 2020,
    "endYear": 2020,
    "status": "completed"
  },
  {
    "id": "79",
    "partner": "Pallet - Portland (Central Eastside - Block C)",
    "country": "USA",
    "city": "Portland",
    "lat": 45.5300472011831,
    "lng": -122.676993999705,
    "type": "Housing",
    "details": "Temporary Shelter",
    "startYear": 2020,
    "endYear": 2020,
    "status": "completed"
  },
  {
    "id": "80",
    "partner": "Pallet - Cottage Grove",
    "country": "USA",
    "city": "Cottage Grove",
    "lat": 43.7976562407491,
    "lng": -123.060906578229,
    "type": "Housing",
    "details": "Temporary Shelter",
    "startYear": 2020,
    "endYear": 2020,
    "status": "completed"
  },
  {
    "id": "81",
    "partner": "Pallet - Florence",
    "country": "USA",
    "city": "Florence",
    "lat": 43.9820916195863,
    "lng": -124.097052340167,
    "type": "Housing",
    "details": "Temporary Shelter",
    "startYear": 2020,
    "endYear": 2020,
    "status": "completed"
  },
  {
    "id": "82",
    "partner": "Pallet - Portland (Central Eastside - Block B)",
    "country": "USA",
    "city": "Portland",
    "lat": 45.5213581191357,
    "lng": -122.66330400506,
    "type": "Housing",
    "details": "Temporary Shelter",
    "startYear": 2020,
    "endYear": 2020,
    "status": "completed"
  },
  {
    "id": "83",
    "partner": "Pallet - Portland (Block R)",
    "country": "USA",
    "city": "Portland",
    "lat": 45.5155,
    "lng": -122.6789,
    "type": "Healthcare",
    "details": "Temporary Shelter",
    "startYear": 2020,
    "endYear": 2020,
    "status": "completed"
  },
  {
    "id": "84",
    "partner": "Nicolas Armand Hospital (MEP)",
    "country": "Haiti",
    "city": "Archaie",
    "lat": 18.771523,
    "lng": -72.51343,
    "type": "Housing",
    "details": "Hospital Renovation",
    "startYear": 2020,
    "endYear": 2021,
    "status": "completed"
  },
  {
    "id": "85",
    "partner": "Pallet - Reseda (LA)",
    "country": "USA",
    "city": "Reseda",
    "lat": 34.2011,
    "lng": -118.5365,
    "type": "Housing",
    "details": "Temporary Shelter",
    "startYear": 2021,
    "endYear": 2021,
    "status": "completed"
  },
  {
    "id": "86",
    "partner": "Pallet - Everett, WA",
    "country": "USA",
    "city": "Everett",
    "lat": 47.979,
    "lng": -122.2021,
    "type": "Housing",
    "details": "Temporary Shelter",
    "startYear": 2021,
    "endYear": 2021,
    "status": "completed"
  },
  {
    "id": "87",
    "partner": "Pallet - Portland (Multnomah County Building)",
    "country": "USA",
    "city": "Portland",
    "lat": 45.5337611941549,
    "lng": -122.664468027113,
    "type": "Housing",
    "details": "Temporary Shelter",
    "startYear": 2021,
    "endYear": 2021,
    "status": "completed"
  },
  {
    "id": "88",
    "partner": "Pallet - Portland (Beacon Village)",
    "country": "USA",
    "city": "Portland",
    "lat": 45.5155,
    "lng": -122.6789,
    "type": "Economic",
    "details": "Temporary Shelter",
    "startYear": 2021,
    "endYear": 2021,
    "status": "completed"
  },
  {
    "id": "89",
    "partner": "Integrate Health - Offices",
    "country": "Togo",
    "city": "Kara",
    "lat": 9.5511,
    "lng": 1.1861,
    "type": "Housing",
    "details": "Office Building",
    "startYear": 2021,
    "endYear": 2022,
    "status": "completed"
  },
  {
    "id": "90",
    "partner": "Pallet - Grand Junction",
    "country": "USA",
    "city": "Grand Junction",
    "lat": 39.0639,
    "lng": -108.5506,
    "type": "Housing",
    "details": "Temporary Shelter",
    "startYear": 2021,
    "endYear": 2021,
    "status": "completed"
  },
  {
    "id": "91",
    "partner": "Pallet - Ashland",
    "country": "USA",
    "city": "Ashland",
    "lat": 42.1946,
    "lng": -122.7095,
    "type": "Housing",
    "details": "Temporary Shelter",
    "startYear": 2021,
    "endYear": 2021,
    "status": "completed"
  },
  {
    "id": "92",
    "partner": "Pallet - Aurora, CO",
    "country": "USA",
    "city": "Aurora",
    "lat": 39.7294,
    "lng": -104.8319,
    "type": "Housing",
    "details": "Temporary Shelter",
    "startYear": 2021,
    "endYear": 2021,
    "status": "completed"
  },
  {
    "id": "93",
    "partner": "Pallet - Madison, WI",
    "country": "USA",
    "city": "Madison",
    "lat": 43.0731,
    "lng": -89.4012,
    "type": "Housing",
    "details": "Temporary Shelter",
    "startYear": 2021,
    "endYear": 2021,
    "status": "completed"
  },
  {
    "id": "94",
    "partner": "Pallet - Chico, CA",
    "country": "USA",
    "city": "Chico",
    "lat": 39.7285,
    "lng": -121.8375,
    "type": "Food Security",
    "details": "Temporary Shelter",
    "startYear": 2021,
    "endYear": 2022,
    "status": "completed"
  },
  {
    "id": "95",
    "partner": "World Relief - Kent, WA",
    "country": "USA",
    "city": "Kent",
    "lat": 47.3809,
    "lng": -122.2348,
    "type": "Food Security",
    "details": "Refugee - Community Garden - Kitchen",
    "startYear": 2021,
    "endYear": 2023,
    "status": "completed"
  },
  {
    "id": "96",
    "partner": "White Center Food Bank",
    "country": "USA",
    "city": "Seattle",
    "lat": 47.6062,
    "lng": -122.3321,
    "type": "Healthcare",
    "details": "Food Security",
    "startYear": 2021,
    "endYear": 2023,
    "status": "completed"
  },
  {
    "id": "97",
    "partner": "Vashon Island Food Bank - rendering for fundraising",
    "country": "USA",
    "city": "Vashon Island, WA",
    "lat": 47.4473,
    "lng": -122.4598,
    "type": "Education",
    "details": "Food Security",
    "startYear": 2022,
    "endYear": 2023,
    "status": "completed"
  },
  {
    "id": "98",
    "partner": "Matibabu - Operating Theater",
    "country": "Kenya",
    "city": "Ukwala",
    "lat": 0.283333,
    "lng": 34.2833,
    "type": "Education",
    "details": "Health Clinic",
    "startYear": 2021,
    "endYear": 2024,
    "status": "completed"
  },
  {
    "id": "99",
    "partner": "Flying Kites Kitchens - Tulaga",
    "country": "Kenya",
    "city": "South Kinangop",
    "lat": -0.75,
    "lng": 36.55,
    "type": "Education",
    "details": "Kitchens",
    "startYear": 2022,
    "endYear": 2022,
    "status": "completed"
  },
  {
    "id": "100",
    "partner": "Flying Kites Kitchens - Heni",
    "country": "Kenya",
    "city": "South Kinangop",
    "lat": -0.75,
    "lng": 36.55,
    "type": "Education",
    "details": "Kitchens",
    "startYear": 2022,
    "endYear": 2022,
    "status": "completed"
  },
  {
    "id": "101",
    "partner": "Flying Kites Kitchens - Nyakio",
    "country": "Kenya",
    "city": "South Kinangop",
    "lat": -0.75,
    "lng": 36.55,
    "type": "Healthcare",
    "details": "Kitchens",
    "startYear": 2022,
    "endYear": 2022,
    "status": "completed"
  },
  {
    "id": "102",
    "partner": "Bukobero - Uganda",
    "country": "Uganda",
    "city": "Bukugi",
    "lat": 0.6833,
    "lng": 31.7667,
    "type": "Healthcare",
    "details": "Community Health Clinic",
    "startYear": 2022,
    "endYear": null,
    "status": "active"
  },
  {
    "id": "103",
    "partner": "Flying Kites - P1",
    "country": "Kenya",
    "city": "Njabini",
    "lat": -0.7833,
    "lng": 36.5333,
    "type": "Healthcare",
    "details": "School Washrooms",
    "startYear": 2022,
    "endYear": 2022,
    "status": "completed"
  },
  {
    "id": "104",
    "partner": "Integrate Health P5 - USP Nadoba",
    "country": "Togo",
    "city": "Keran",
    "lat": 10.0833,
    "lng": 0.7333,
    "type": "Healthcare",
    "details": "Health Clinic Renovations",
    "startYear": 2022,
    "endYear": 2022,
    "status": "completed"
  },
  {
    "id": "105",
    "partner": "Integrate Health P5 - USP Natiponi",
    "country": "Togo",
    "city": "Keran",
    "lat": 10.0833,
    "lng": 0.7333,
    "type": "Healthcare",
    "details": "Health Clinic Renovations",
    "startYear": 2022,
    "endYear": 2022,
    "status": "completed"
  },
  {
    "id": "106",
    "partner": "Integrate Health P5 - USP Warango",
    "country": "Togo",
    "city": "Keran",
    "lat": 10.0833,
    "lng": 0.7333,
    "type": "Healthcare",
    "details": "Health Clinic Renovations",
    "startYear": 2022,
    "endYear": 2022,
    "status": "completed"
  },
  {
    "id": "107",
    "partner": "Integrate Health P5 - USP Pangouda",
    "country": "Togo",
    "city": "Keran",
    "lat": 10.0833,
    "lng": 0.7333,
    "type": "Healthcare",
    "details": "Health Clinic Renovations",
    "startYear": 2022,
    "endYear": 2022,
    "status": "completed"
  },
  {
    "id": "108",
    "partner": "Integrate Health P5 - USP Kokou\nTemberma",
    "country": "Togo",
    "city": "Keran",
    "lat": 10.0833,
    "lng": 0.7333,
    "type": "Healthcare",
    "details": "Health Clinic Renovations",
    "startYear": 2022,
    "endYear": 2022,
    "status": "completed"
  },
  {
    "id": "109",
    "partner": "Integrate Health P5 - USP Kouyoria",
    "country": "Togo",
    "city": "Binah",
    "lat": 9.85,
    "lng": 1.0,
    "type": "Healthcare",
    "details": "Health Clinic Renovations",
    "startYear": 2023,
    "endYear": 2023,
    "status": "completed"
  },
  {
    "id": "110",
    "partner": "Integrate Health P5 - USP Solla",
    "country": "Togo",
    "city": "Binah",
    "lat": 9.85,
    "lng": 1.0,
    "type": "Healthcare",
    "details": "Health Clinic Renovations",
    "startYear": 2023,
    "endYear": 2023,
    "status": "completed"
  },
  {
    "id": "111",
    "partner": "Integrate Health P5 - USP Boufale",
    "country": "Togo",
    "city": "Binah",
    "lat": 9.85,
    "lng": 1.0,
    "type": "Healthcare",
    "details": "Health Clinic Renovations",
    "startYear": 2023,
    "endYear": 2023,
    "status": "completed"
  },
  {
    "id": "112",
    "partner": "Integrate Health P5 - USP Assere",
    "country": "Togo",
    "city": "Binah",
    "lat": 9.85,
    "lng": 1.0,
    "type": "Healthcare",
    "details": "Health Clinic Renovations",
    "startYear": 2023,
    "endYear": 2023,
    "status": "completed"
  },
  {
    "id": "113",
    "partner": "Integrate Health P5 - USP Pessare",
    "country": "Togo",
    "city": "Binah",
    "lat": 9.85,
    "lng": 1.0,
    "type": "Healthcare",
    "details": "Health Clinic Renovations",
    "startYear": 2023,
    "endYear": 2024,
    "status": "completed"
  },
  {
    "id": "114",
    "partner": "Integrate Health P5 - USP Sirka",
    "country": "Togo",
    "city": "Binah",
    "lat": 9.85,
    "lng": 1.0,
    "type": "Education",
    "details": "Health Clinic Renovations",
    "startYear": 2023,
    "endYear": 2023,
    "status": "completed"
  },
  {
    "id": "115",
    "partner": "Integrate Health P5 - USP N\u2019djei",
    "country": "Togo",
    "city": "Binah",
    "lat": 9.85,
    "lng": 1.0,
    "type": "WASH",
    "details": "Health Clinic Renovations",
    "startYear": 2023,
    "endYear": 2023,
    "status": "completed"
  },
  {
    "id": "116",
    "partner": "Matibabu - Morgue",
    "country": "Kenya",
    "city": "Ukwala",
    "lat": 0.283333,
    "lng": 34.2833,
    "type": "WASH",
    "details": "Mortuary",
    "startYear": 2023,
    "endYear": null,
    "status": "active"
  },
  {
    "id": "117",
    "partner": "Flying Kites - P2",
    "country": "Kenya",
    "city": "Njabini",
    "lat": -0.7833,
    "lng": 36.5333,
    "type": "Education",
    "details": "Kitchens - P",
    "startYear": 2023,
    "endYear": 2023,
    "status": "completed"
  },
  {
    "id": "118",
    "partner": "Teule Kenya",
    "country": "Kenya",
    "city": "Oloitokitok",
    "lat": -2.77,
    "lng": 37.52,
    "type": "WASH",
    "details": "School, residential",
    "startYear": 2023,
    "endYear": null,
    "status": "active"
  },
  {
    "id": "119",
    "partner": "Grace Impact - precon",
    "country": "Kenya",
    "city": "Nairobi",
    "lat": -1.2921,
    "lng": 36.8219,
    "type": "WASH",
    "details": "Shipping Container Abolution block",
    "startYear": 2023,
    "endYear": 2024,
    "status": "completed"
  },
  {
    "id": "120",
    "partner": "Integrate Health - Guinea PreCon",
    "country": "Guinea",
    "city": "Kouroussa",
    "lat": 10.6514,
    "lng": -9.8836,
    "type": "Education",
    "details": "Health Clinic",
    "startYear": 2023,
    "endYear": 2023,
    "status": "completed"
  },
  {
    "id": "121",
    "partner": "Flying Kites - Phase 3  - Kitchens",
    "country": "Kenya",
    "city": "Njabini",
    "lat": -0.7833,
    "lng": 36.5333,
    "type": "WASH",
    "details": "2 Kitchens",
    "startYear": 2023,
    "endYear": 2024,
    "status": "completed"
  },
  {
    "id": "122",
    "partner": "Flying Kites - Tech Resource centre",
    "country": "Kenya",
    "city": "Njabini",
    "lat": -0.716667,
    "lng": 36.6667,
    "type": "Economic",
    "details": "FK - Tech Resource Center (Academy)",
    "startYear": 2024,
    "endYear": null,
    "status": "active"
  },
  {
    "id": "123",
    "partner": "Flying Kites - Academy Infrastructure Upgrades",
    "country": "Kenya",
    "city": "Njabini",
    "lat": -0.716667,
    "lng": 36.6667,
    "type": "Healthcare",
    "details": "Well, WWTP, Admin Block 1&2 refurbishment, kitchen extension.",
    "startYear": 2024,
    "endYear": null,
    "status": "active"
  },
  {
    "id": "124",
    "partner": "Flying Kites - Phase 4  - Kitchens",
    "country": "Kenya",
    "city": "Njabini",
    "lat": -0.7833,
    "lng": 36.5333,
    "type": "Housing",
    "details": "3 Kitchens",
    "startYear": 2024,
    "endYear": null,
    "status": "active"
  },
  {
    "id": "125",
    "partner": "Kizimani",
    "country": "Kenya",
    "city": "Kangundo",
    "lat": -1.3867,
    "lng": 37.3167,
    "type": "Housing",
    "details": "Kizimani learning center",
    "startYear": 2024,
    "endYear": null,
    "status": "active"
  },
  {
    "id": "126",
    "partner": "Canaan International",
    "country": "Uganda",
    "city": "Luwero",
    "lat": 0.8494,
    "lng": 32.4733,
    "type": "Housing",
    "details": "Boundary wall",
    "startYear": 2024,
    "endYear": null,
    "status": "active"
  },
  {
    "id": "127",
    "partner": "Grace Impact",
    "country": "Uganda",
    "city": null,
    "lat": null,
    "lng": null,
    "type": "Education",
    "details": "TBD",
    "startYear": 2024,
    "endYear": null,
    "status": "active"
  },
  {
    "id": "128",
    "partner": "JZONE",
    "country": "Zambia",
    "city": "Livingstone",
    "lat": -17.8419,
    "lng": 25.8544,
    "type": "Housing",
    "details": "Training Centre",
    "startYear": 2024,
    "endYear": null,
    "status": "active"
  },
  {
    "id": "129",
    "partner": "MIlele International",
    "country": "Kenya",
    "city": "Kitale",
    "lat": 1.0159,
    "lng": 35.002,
    "type": "Healthcare",
    "details": "Rehabilitation Centre",
    "startYear": 2024,
    "endYear": null,
    "status": "active"
  }
]
